{
  "regions": [
    {
      "id": "sofia-city",
      "name": "София (столица)",
      "coordinates": [23.3219, 42.6977],
      "metrics": {
        "gdp": 28500,
        "ppp": 78,
        "population": 1236000,
        "unemployment": 3.2,
        "industries": ["IT", "Finance", "Tourism", "Manufacturing"]
      },
      "developmentLevel": "high"
    },
    {
      "id": "plovdiv",
      "name": "Пловдив",
      "coordinates": [24.7453, 42.1354],
      "metrics": {
        "gdp": 18200,
        "ppp": 65,
        "population": 346893,
        "unemployment": 5.1,
        "industries": ["Agriculture", "Food Processing", "Textiles"]
      },
      "developmentLevel": "medium"
    },
    {
      "id": "varna",
      "name": "Варна",
      "coordinates": [27.9147, 43.2141],
      "metrics": {
        "gdp": 19800,
        "ppp": 68,
        "population": 334870,
        "unemployment": 4.8,
        "industries": ["Tourism", "Shipping", "Logistics"]
      },
      "developmentLevel": "medium"
    },
    {
      "id": "burgas",
      "name": "Бургас",
      "coordinates": [27.4626, 42.5048],
      "metrics": {
        "gdp": 17500,
        "ppp": 62,
        "population": 202766,
        "unemployment": 5.5,
        "industries": ["Oil Refining", "Fishing", "Tourism"]
      },
      "developmentLevel": "medium"
    },
    {
      "id": "ruse",
      "name": "Русе",
      "coordinates": [25.9654, 43.8564],
      "metrics": {
        "gdp": 15200,
        "ppp": 58,
        "population": 144936,
        "unemployment": 6.2,
        "industries": ["Manufacturing", "Agriculture", "Trade"]
      },
      "developmentLevel": "medium"
    },
    {
      "id": "stara-zagora",
      "name": "Стара Загора",
      "coordinates": [25.6394, 42.4258],
      "metrics": {
        "gdp": 16800,
        "ppp": 61,
        "population": 136781,
        "unemployment": 5.8,
        "industries": ["Manufacturing", "Energy", "Agriculture"]
      },
      "developmentLevel": "medium"
    }
  ]
}

